{"type":"FeatureCollection","features":[{"type":"Feature","properties":{"Title":"Alpha Tourism Centre","Location Description":"0.3km N from Alpha on local access road","Water":"yes","Universal access toilet":"yes","Table":"no","Play area":"no","Barbecue":"no"},"geometry":{"type":"Point","coordinates":[146.6411833,-23.64861667]}},{"type":"Feature","properties":{"Title":"Ayr Sandy Corner","Location Description":"8.8km NW from Ayr on route 10L, 1.5 km N of Brandon","Water":"yes","Universal access toilet":"no","Table":"yes","Play area":"no","Barbecue":"no"},"geometry":{"type":"Point","coordinates":[147.3369,-19.5712]}},{"type":"Feature","properties":{"Title":"Beaudesert Caltex Service Station","Location Description":"0.2km SW from Beaudesert on route 25B","Water":"yes","Universal access toilet":"no","Table":"yes","Play area":"yes","Barbecue":"yes"},"geometry":{"type":"Point","coordinates":[152.9950167,-27.98898333]}},{"type":"Feature","properties":{"marker-color":"#7e7e7e","marker-size":"medium","marker-symbol":"","Title":"Bowen Mt Gordon","Location Description":"4.3km S from Bowen on route 10J","Water":"yes","Universal access toilet":"yes","Table":"yes","Play area":"no","Barbecue":"yes"},"geometry":{"type":"Point","coordinates":[148.2290333,-20.04628333]}},{"type":"Feature","properties":{"Title":"Calliope River Historical Village","Location Description":"9.2km N from Calliope on route 10E","Water":"yes","Universal access toilet":"yes","Table":"yes","Play area":"no","Barbecue":"no"},"geometry":{"type":"Point","coordinates":[151.1515498,-23.959503]}},{"type":"Feature","properties":{"marker-color":"#7e7e7e","marker-size":"medium","marker-symbol":"","Title":"Charleville Visitor Information Centre","Location Description":"0.03km off A2 Warrego Highway, Railway Station Building, King Street, Charleville","Water":"yes","Universal access toilet":"no","Table":"yes","Play area":"yes","Barbecue":"no"},"geometry":{"type":"Point","coordinates":[146.2439333,-26.40588333]}},{"type":"Feature","properties":{"Title":"Cloncurry Fountain Springs","Location Description":"60km W from Cloncurry on route 15A","Water":"yes","Universal access toilet":"yes","Table":"yes","Play area":"no","Barbecue":"no"},"geometry":{"type":"Point","coordinates":[139.9963167,-20.80046667]}},{"type":"Feature","properties":{"Title":"Gin Gin","Location Description":"1.5km NW from Gin Gin on route 10D","Water":"yes","Universal access toilet":"no","Table":"yes","Play area":"yes","Barbecue":"no"},"geometry":{"type":"Point","coordinates":[151.94635,-24.97468333]}},{"type":"Feature","properties":{"Title":"Goondiwindi Redmond Park","Location Description":"1km SE from Goondiwindi on route 360 (Cunningham Highway)","Water":"yes","Universal access toilet":"yes","Table":"yes","Play area":"yes","Barbecue":"no"},"geometry":{"type":"Point","coordinates":[150.3199,-28.55043333]}},{"type":"Feature","properties":{"Title":"Gympie Gunalda","Location Description":"29km N from Gympie on route 10B","Water":"yes","Universal access toilet":"no","Table":"yes","Play area":"no","Barbecue":"no"},"geometry":{"type":"Point","coordinates":[152.57,-25.986]}},{"type":"Feature","properties":{"Title":"Hughenden Apex Park","Location Description":"1.6km W from Hughenden on route 14C, Rotary Club Project","Water":"yes","Universal access toilet":"yes","Table":"yes","Play area":"no","Barbecue":"no"},"geometry":{"type":"Point","coordinates":[144.185,-20.8422]}},{"type":"Feature","properties":{"Title":"Ingham Frances Ck","Location Description":"11.2km S from Ingham on route 10M","Water":"yes","Universal access toilet":"no","Table":"yes","Play area":"no","Barbecue":"no"},"geometry":{"type":"Point","coordinates":[146.1372333,-18.74786667]}},{"type":"Feature","properties":{"Title":"Inglewood Apex/Lions (MacInt Bk)","Location Description":"0.5km NE from Inglewood on route 17C","Water":"yes","Universal access toilet":"yes","Table":"yes","Play area":"yes","Barbecue":"yes"},"geometry":{"type":"Point","coordinates":[151.085,-28.4129]}},{"type":"Feature","properties":{"Title":"Injune Hutton Street","Location Description":"0.1km S from Injune on route 24E","Water":"yes","Universal access toilet":"no","Table":"yes","Play area":"yes","Barbecue":"no"},"geometry":{"type":"Point","coordinates":[148.5659667,-25.84351667]}},{"type":"Feature","properties":{"Title":"Innisfail Fred Drew Park","Location Description":"4km N from Innisfail on route 10P, Tourist Information Location","Water":"yes","Universal access toilet":"no","Table":"yes","Play area":"no","Barbecue":"no"},"geometry":{"type":"Point","coordinates":[145.994,-17.5147]}},{"type":"Feature","properties":{"Title":"Julia Creek George Sills Park","Location Description":"0.7km E from Julia Creek on route 14D","Water":"yes","Universal access toilet":"no","Table":"yes","Play area":"yes","Barbecue":"yes"},"geometry":{"type":"Point","coordinates":[141.75025,-20.65728333]}},{"type":"Feature","properties":{"Title":"Maryborough South Travel Stop","Location Description":"3km S from Maryborough on route 10C","Water":"yes","Universal access toilet":"yes","Table":"yes","Play area":"no","Barbecue":"no"},"geometry":{"type":"Point","coordinates":[152.6543833,-25.57723333]}},{"type":"Feature","properties":{"Title":"Miles Anzac Pk","Location Description":"0.2km W from Miles on route 18D","Water":"yes","Universal access toilet":"yes","Table":"yes","Play area":"yes","Barbecue":"no"},"geometry":{"type":"Point","coordinates":[150.1847667,-26.66008333]}},{"type":"Feature","properties":{"Title":"Millmerran Lions Pk","Location Description":"0.5km NE from Millmerran on route 28A","Water":"yes","Universal access toilet":"no","Table":"yes","Play area":"yes","Barbecue":"no"},"geometry":{"type":"Point","coordinates":[151.274,-27.8742]}},{"type":"Feature","properties":{"Title":"Granite Creek","Location Description":"35.7km S from Miriam Vale on route 10D","Water":"yes","Universal access toilet":"yes","Table":"yes","Play area":"no","Barbecue":"no"},"geometry":{"type":"Point","coordinates":[151.667,-24.6127]}},{"type":"Feature","properties":{"Title":"Monto Lions Park","Location Description":"0.5km W from Monto on route 41D, Ken Russell Memorial","Water":"yes","Universal access toilet":"no","Table":"yes","Play area":"yes","Barbecue":"no"},"geometry":{"type":"Point","coordinates":[151.114,-24.865]}},{"type":"Feature","properties":{"Title":"Mundubbera Black Stump-Jaycee Pk","Location Description":"2.6km NE from Mundubbera on route 41C","Water":"yes","Universal access toilet":"no","Table":"yes","Play area":"yes","Barbecue":"yes"},"geometry":{"type":"Point","coordinates":[151.3108833,-25.57351667]}},{"type":"Feature","properties":{"Title":"Nambour Northbound BP Chevallum","Location Description":"9km SE from Nambour on route 10A, BP Forest Glen Nth Bound","Water":"yes","Universal access toilet":"no","Table":"yes","Play area":"no","Barbecue":"no"},"geometry":{"type":"Point","coordinates":[153.004,-26.6898]}},{"type":"Feature","properties":{"marker-color":"#7e7e7e","marker-size":"medium","marker-symbol":"","Title":"Ormeau Brien Harris Oval","Location Description":"0.7km NW from Ormeau on route 12A","Water":"yes","Universal access toilet":"no","Table":"yes","Play area":"no","Barbecue":"no"},"geometry":{"type":"Point","coordinates":[153.25242,-27.78589667]}},{"type":"Feature","properties":{"Title":"Waverley Ck","Location Description":"13km S from St Lawrence on route 10F","Water":"yes","Universal access toilet":"yes","Table":"yes","Play area":"no","Barbecue":"no"},"geometry":{"type":"Point","coordinates":[149.475,-22.4397]}},{"type":"Feature","properties":{"Title":"Tully Bilyana","Location Description":"25km S from Tully on route 10N","Water":"yes","Universal access toilet":"no","Table":"yes","Play area":"no","Barbecue":"no"},"geometry":{"type":"Point","coordinates":[145.91255,-18.1189]}},{"type":"Feature","properties":{"Title":"Wallangarra Lions RA","Location Description":"0.4km NW from Wallangarra on route 22C","Water":"yes","Universal access toilet":"yes","Table":"yes","Play area":"yes","Barbecue":"yes"},"geometry":{"type":"Point","coordinates":[151.929,-28.9214]}},{"type":"Feature","properties":{"Title":"Warwick Gladfield","Location Description":"27km NE from Warwick on route 17B","Water":"yes","Universal access toilet":"no","Table":"yes","Play area":"no","Barbecue":"yes"},"geometry":{"type":"Point","coordinates":[152.187,-28.0741]}},{"type":"Feature","properties":{"Title":"Windorah Craft & Vistors Centre","Location Description":"0.3km SE from Windorah on route 93B","Water":"no","Universal access toilet":"yes","Table":"no","Play area":"no","Barbecue":"no"},"geometry":{"type":"Point","coordinates":[142.6549167,-25.42198333]}},{"type":"Feature","properties":{"Title":"Wondai Dingo Ck Bicentenial Pk","Location Description":"0.5km N from Wondai on route 45B","Water":"yes","Universal access toilet":"no","Table":"no","Play area":"no","Barbecue":"no"},"geometry":{"type":"Point","coordinates":[151.8707,-26.31378333]}},{"type":"Feature","properties":{"Title":"Yaamba","Location Description":"0.4km N from Yaamba on route 10F","Water":"yes","Universal access toilet":"no","Table":"yes","Play area":"no","Barbecue":"no"},"geometry":{"type":"Point","coordinates":[150.3685833,-23.1352]}},{"type":"Feature","properties":{"Title":"Yarraman Driver Reviver","Location Description":"1km SE from Yarraman on route 40B","Water":"no","Universal access toilet":"no","Table":"yes","Play area":"no","Barbecue":"no"},"geometry":{"type":"Point","coordinates":[151.9822,-26.84223333]}}]}